{
	"tiks": [
		{
			"lon": 41.40479375,
			"lat": 54.93802855,
			"desc": "ул. Ленина, 9А",
			"phone": "(49131) 4-41-53",
			"url": "http://www.ryazan.vybory.izbirkom.ru/region/ryazan?action=show_komissia&region=62&sub_region=62&type=100&vrnorg=262200070603&vrnkomis=462403113454",
			"name": "города Касимова"
		}
	],
	"uiks": [
		{
			"lon": 41.344849,
			"lat": 54.926258,
			"obj": "Средняя общеобразовательная школа № 6 им. адмирала А.П. Авинова",
			"addr": "м-н Приокский, 10-А",
			"phone": "3-00-78",
			"count": 1442,
			"number": 1
		},
		{
			"lon": 41.345387,
			"lat": 54.926147,
			"obj": "Средняя общеобразовательная школа № 6 им. адмирала А.П. Авинова",
			"addr": "м-н Приокский, 10-А",
			"phone": "3-10-60",
			"count": 1472,
			"number": 2
		},
		{
			"lon": 41.378242,
			"lat": 54.954685,
			"obj": "Культурно-оздоровительный центр «Сиверка»",
			"addr": "ул. Северная, д. 1",
			"phone": "5-03-88",
			"count": 1291,
			"number": 3
		},
		{
			"lon": 41.37851,
			"lat": 54.954651,
			"obj": "Культурно-оздоровительный центр «Сиверка»",
			"addr": "ул. Северная, д. 1",
			"phone": "5-03-80",
			"count": 1177,
			"number": 4
		},
		{
			"lon": 41.365955,
			"lat": 54.945484,
			"obj": "ООШ",
			"addr": "ул. Московская, д. 67",
			"phone": "2-09-30",
			"count": 1320,
			"number": 5
		},
		{
			"lon": 41.354134,
			"lat": 54.944832,
			"obj": "библиотека",
			"addr": "ул. Затонная, д. 9Б",
			"phone": "5-09-54",
			"count": 1069,
			"number": 6
		},
		{
			"lon": 41.372559,
			"lat": 54.945019,
			"obj": "ООШ",
			"addr": "ул. Московская, д. 1",
			"phone": "2-25-73",
			"count": 1348,
			"number": 7
		},
		{
			"lon": 41.346516,
			"lat": 54.92931,
			"obj": "Детский сад №11",
			"addr": "ул. Широкая, д. 11",
			"phone": "3-08-46",
			"count": 723,
			"number": 8
		},
		{
			"lon": 41.388729,
			"lat": 54.940327,
			"obj": "Дворец культуры",
			"addr": "ул. Академика В. Ф. Уткина, д. 5",
			"phone": "2-06-63",
			"count": 689,
			"number": 9
		},
		{
			"lon": 41.395714,
			"lat": 54.938625,
			"obj": "Касимовский нефтегазовый техникум",
			"addr": "ул. Советская, д. 18",
			"phone": "2-43-51",
			"count": 1616,
			"number": 10
		},
		{
			"lon": 41.391991,
			"lat": 54.944763,
			"obj": "Средняя общеобразовательная школа №4",
			"addr": "ул. 50 лет ВЛКСМ, д.26-б",
			"phone": "2-28-84",
			"count": 1011,
			"number": 11
		},
		{
			"lon": 41.394794,
			"lat": 54.94059,
			"obj": "Центральная библиотека им. Л.А. Малюгина",
			"addr": "ул. К. Либкнехта, д. 6",
			"phone": "4-21-85",
			"count": 1489,
			"number": 12
		},
		{
			"lon": 41.420742,
			"lat": 54.953903,
			"obj": "детский сад",
			"addr": "ул. Советская д. 195в",
			"phone": "2-40-31",
			"count": 1662,
			"number": 13
		},
		{
			"lon": 41.423843,
			"lat": 54.955463,
			"obj": "Детско-юношеская спортивная школа",
			"addr": "ул. Советская, д. 199",
			"phone": "4-29-72",
			"count": 1227,
			"number": 14
		},
		{
			"lon": 41.427254,
			"lat": 54.955231,
			"obj": "Городская управляющая компания",
			"addr": "ул. Советская, д. 226",
			"phone": "4-35-43",
			"count": 1627,
			"number": 15
		},
		{
			"lon": 41.411594,
			"lat": 54.943974,
			"obj": "Школа-интернат",
			"addr": "ул. Гагарина, д. 1",
			"phone": "2-00-45",
			"count": 1310,
			"number": 16
		},
		{
			"lon": 41.41254,
			"lat": 54.944405,
			"obj": "Школа-интернат",
			"addr": "ул. Гагарина, д. 1",
			"phone": "2-21-55",
			"count": 1453,
			"number": 17
		},
		{
			"lon": 41.412197,
			"lat": 54.944202,
			"obj": "Школа-интернат",
			"addr": "ул. Гагарина, д. 1",
			"phone": "4-43-52",
			"count": 1523,
			"number": 18
		},
		{
			"lon": 41.4093375,
			"lat": 54.9342771,
			"obj": "Рязанский педагогический колледж",
			"addr": "ул. Ленина, д. 25",
			"phone": "2-40-28",
			"count": 1299,
			"number": 19
		},
		{
			"lon": 41.402874,
			"lat": 54.935463,
			"obj": "Средняя общеобразовательная школа № 3",
			"addr": "ул. Татарская, д. 7",
			"phone": "2-26-57",
			"count": 1591,
			"number": 20
		},
		{
			"lon": 41.405731,
			"lat": 54.930466,
			"obj": "Средняя общеобразовательная  школа № 7",
			"addr": "ул. Большакова, д. 51",
			"phone": "4-14-62",
			"count": 1354,
			"number": 21
		},
		{
			"lon": 41.406059,
			"lat": 54.930077,
			"obj": "Средняя общеобразовательная  школа № 7",
			"addr": "ул. Большакова, д. 51",
			"phone": "4-31-21",
			"count": 1280,
			"number": 22
		}
	]
}
